{"type":"FeatureCollection","features":[{"type":"Feature","geometry":{"type":"Point","coordinates":[-86.279118,32.361538]},"properties":{"state":"Alabama","name":"Montgomery"},"bbox":[-86.279118,32.361538,-86.279118,32.361538]},{"type":"Feature","geometry":{"type":"Point","coordinates":[-134.41974,58.301935]},"properties":{"state":"Alaska","name":"Juneau"},"bbox":[-134.41974,58.301935,-134.41974,58.301935]},{"type":"Feature","geometry":{"type":"Point","coordinates":[-112.073844,33.448457]},"properties":{"state":"Arizona","name":"Phoenix"},"bbox":[-112.073844,33.448457,-112.073844,33.448457]},{"type":"Feature","geometry":{"type":"Point","coordinates":[-92.331122,34.736009]},"properties":{"state":"Arkansas","name":"Little Rock"},"bbox":[-92.331122,34.736009,-92.331122,34.736009]},{"type":"Feature","geometry":{"type":"Point","coordinates":[-121.468926,38.555605]},"properties":{"state":"California","name":"Sacramento"},"bbox":[-121.468926,38.555605,-121.468926,38.555605]},{"type":"Feature","geometry":{"type":"Point","coordinates":[-104.984167,39.7391667]},"properties":{"state":"Colorado","name":"Denver"},"bbox":[-104.984167,39.7391667,-104.984167,39.7391667]},{"type":"Feature","geometry":{"type":"Point","coordinates":[-72.677,41.767]},"properties":{"state":"Connecticut","name":"Hartford"},"bbox":[-72.677,41.767,-72.677,41.767]},{"type":"Feature","geometry":{"type":"Point","coordinates":[-75.526755,39.161921]},"properties":{"state":"Delaware","name":"Dover"},"bbox":[-75.526755,39.161921,-75.526755,39.161921]},{"type":"Feature","geometry":{"type":"Point","coordinates":[-84.27277,30.4518]},"properties":{"state":"Florida","name":"Tallahassee"},"bbox":[-84.27277,30.4518,-84.27277,30.4518]},{"type":"Feature","geometry":{"type":"Point","coordinates":[-84.39,33.76]},"properties":{"state":"Georgia","name":"Atlanta"},"bbox":[-84.39,33.76,-84.39,33.76]},{"type":"Feature","geometry":{"type":"Point","coordinates":[-157.826182,21.30895]},"properties":{"state":"Hawaii","name":"Honolulu"},"bbox":[-157.826182,21.30895,-157.826182,21.30895]},{"type":"Feature","geometry":{"type":"Point","coordinates":[-116.237651,43.613739]},"properties":{"state":"Idaho","name":"Boise"},"bbox":[-116.237651,43.613739,-116.237651,43.613739]},{"type":"Feature","geometry":{"type":"Point","coordinates":[-89.650373,39.78325]},"properties":{"state":"Illinois","name":"Springfield"},"bbox":[-89.650373,39.78325,-89.650373,39.78325]},{"type":"Feature","geometry":{"type":"Point","coordinates":[-86.147685,39.790942]},"properties":{"state":"Indiana","name":"Indianapolis"},"bbox":[-86.147685,39.790942,-86.147685,39.790942]},{"type":"Feature","geometry":{"type":"Point","coordinates":[-93.620866,41.590939]},"properties":{"state":"Iowa","name":"Des Moines"},"bbox":[-93.620866,41.590939,-93.620866,41.590939]},{"type":"Feature","geometry":{"type":"Point","coordinates":[-95.69,39.04]},"properties":{"state":"Kansas","name":"Topeka"},"bbox":[-95.69,39.04,-95.69,39.04]},{"type":"Feature","geometry":{"type":"Point","coordinates":[-84.86311,38.197274]},"properties":{"state":"Kentucky","name":"Frankfort"},"bbox":[-84.86311,38.197274,-84.86311,38.197274]},{"type":"Feature","geometry":{"type":"Point","coordinates":[-91.140229,30.45809]},"properties":{"state":"Louisiana","name":"Baton Rouge"},"bbox":[-91.140229,30.45809,-91.140229,30.45809]},{"type":"Feature","geometry":{"type":"Point","coordinates":[-69.765261,44.323535]},"properties":{"state":"Maine","name":"Augusta"},"bbox":[-69.765261,44.323535,-69.765261,44.323535]},{"type":"Feature","geometry":{"type":"Point","coordinates":[-76.501157,38.972945]},"properties":{"state":"Maryland","name":"Annapolis"},"bbox":[-76.501157,38.972945,-76.501157,38.972945]},{"type":"Feature","geometry":{"type":"Point","coordinates":[-71.0275,42.2352]},"properties":{"state":"Massachusetts","name":"Boston"},"bbox":[-71.0275,42.2352,-71.0275,42.2352]},{"type":"Feature","geometry":{"type":"Point","coordinates":[-84.5467,42.7335]},"properties":{"state":"Michigan","name":"Lansing"},"bbox":[-84.5467,42.7335,-84.5467,42.7335]},{"type":"Feature","geometry":{"type":"Point","coordinates":[-93.094,44.95]},"properties":{"state":"Minnesota","name":"Saint Paul"},"bbox":[-93.094,44.95,-93.094,44.95]},{"type":"Feature","geometry":{"type":"Point","coordinates":[-90.207,32.32]},"properties":{"state":"Mississippi","name":"Jackson"},"bbox":[-90.207,32.32,-90.207,32.32]},{"type":"Feature","geometry":{"type":"Point","coordinates":[-92.189283,38.572954]},"properties":{"state":"Missouri","name":"Jefferson City"},"bbox":[-92.189283,38.572954,-92.189283,38.572954]},{"type":"Feature","geometry":{"type":"Point","coordinates":[-112.027031,46.595805]},"properties":{"state":"Montana","name":"Helana"},"bbox":[-112.027031,46.595805,-112.027031,46.595805]},{"type":"Feature","geometry":{"type":"Point","coordinates":[-96.675345,40.809868]},"properties":{"state":"Nebraska","name":"Lincoln"},"bbox":[-96.675345,40.809868,-96.675345,40.809868]},{"type":"Feature","geometry":{"type":"Point","coordinates":[-119.753877,39.160949]},"properties":{"state":"Nevada","name":"Carson City"},"bbox":[-119.753877,39.160949,-119.753877,39.160949]},{"type":"Feature","geometry":{"type":"Point","coordinates":[-71.549127,43.220093]},"properties":{"state":"New Hampshire","name":"Concord"},"bbox":[-71.549127,43.220093,-71.549127,43.220093]},{"type":"Feature","geometry":{"type":"Point","coordinates":[-74.756138,40.221741]},"properties":{"state":"New Jersey","name":"Trenton"},"bbox":[-74.756138,40.221741,-74.756138,40.221741]},{"type":"Feature","geometry":{"type":"Point","coordinates":[-105.964575,35.667231]},"properties":{"state":"New Mexico","name":"Santa Fe"},"bbox":[-105.964575,35.667231,-105.964575,35.667231]},{"type":"Feature","geometry":{"type":"Point","coordinates":[-73.781339,42.659829]},"properties":{"state":"New York","name":"Albany"},"bbox":[-73.781339,42.659829,-73.781339,42.659829]},{"type":"Feature","geometry":{"type":"Point","coordinates":[-78.638,35.771]},"properties":{"state":"North Carolina","name":"Raleigh"},"bbox":[-78.638,35.771,-78.638,35.771]},{"type":"Feature","geometry":{"type":"Point","coordinates":[-100.779004,48.813343]},"properties":{"state":"North Dakota","name":"Bismarck"},"bbox":[-100.779004,48.813343,-100.779004,48.813343]},{"type":"Feature","geometry":{"type":"Point","coordinates":[-83.000647,39.962245]},"properties":{"state":"Ohio","name":"Columbus"},"bbox":[-83.000647,39.962245,-83.000647,39.962245]},{"type":"Feature","geometry":{"type":"Point","coordinates":[-97.534994,35.482309]},"properties":{"state":"Oklahoma","name":"Oklahoma City"},"bbox":[-97.534994,35.482309,-97.534994,35.482309]},{"type":"Feature","geometry":{"type":"Point","coordinates":[-123.029159,44.931109]},"properties":{"state":"Oregon","name":"Salem"},"bbox":[-123.029159,44.931109,-123.029159,44.931109]},{"type":"Feature","geometry":{"type":"Point","coordinates":[-76.875613,40.269789]},"properties":{"state":"Pennsylvania","name":"Harrisburg"},"bbox":[-76.875613,40.269789,-76.875613,40.269789]},{"type":"Feature","geometry":{"type":"Point","coordinates":[-71.422132,41.82355]},"properties":{"state":"Rhode Island","name":"Providence"},"bbox":[-71.422132,41.82355,-71.422132,41.82355]},{"type":"Feature","geometry":{"type":"Point","coordinates":[-81.035,34]},"properties":{"state":"South Carolina","name":"Columbia"},"bbox":[-81.035,34,-81.035,34]},{"type":"Feature","geometry":{"type":"Point","coordinates":[-100.336378,44.367966]},"properties":{"state":"South Dakota","name":"Pierre"},"bbox":[-100.336378,44.367966,-100.336378,44.367966]},{"type":"Feature","geometry":{"type":"Point","coordinates":[-86.784,36.165]},"properties":{"state":"Tennessee","name":"Nashville"},"bbox":[-86.784,36.165,-86.784,36.165]},{"type":"Feature","geometry":{"type":"Point","coordinates":[-97.75,30.266667]},"properties":{"state":"Texas","name":"Austin"},"bbox":[-97.75,30.266667,-97.75,30.266667]},{"type":"Feature","geometry":{"type":"Point","coordinates":[-111.892622,40.7547]},"properties":{"state":"Utah","name":"Salt Lake City"},"bbox":[-111.892622,40.7547,-111.892622,40.7547]},{"type":"Feature","geometry":{"type":"Point","coordinates":[-72.57194,44.26639]},"properties":{"state":"Vermont","name":"Montpelier"},"bbox":[-72.57194,44.26639,-72.57194,44.26639]},{"type":"Feature","geometry":{"type":"Point","coordinates":[-77.46,37.54]},"properties":{"state":"Virginia","name":"Richmond"},"bbox":[-77.46,37.54,-77.46,37.54]},{"type":"Feature","geometry":{"type":"Point","coordinates":[-122.893077,47.042418]},"properties":{"state":"Washington","name":"Olympia"},"bbox":[-122.893077,47.042418,-122.893077,47.042418]},{"type":"Feature","geometry":{"type":"Point","coordinates":[-81.633294,38.349497]},"properties":{"state":"West Virginia","name":"Charleston"},"bbox":[-81.633294,38.349497,-81.633294,38.349497]},{"type":"Feature","geometry":{"type":"Point","coordinates":[-89.384444,43.074722]},"properties":{"state":"Wisconsin","name":"Madison"},"bbox":[-89.384444,43.074722,-89.384444,43.074722]},{"type":"Feature","geometry":{"type":"Point","coordinates":[-104.802042,41.145548]},"properties":{"state":"Wyoming","name":"Cheyenne"},"bbox":[-104.802042,41.145548,-104.802042,41.145548]}]}
